City_ID,City,Country,Lat,Lng,Max Temp,Humidity,Cloudiness,Wind Speed,Current Description
0,Longyearbyen,SJ,78.2186,15.6401,42.64,70,75,10.36,broken clouds
1,Clyde River,CA,70.4692,-68.5914,35.83,80,20,36.82,few clouds
2,Busselton,AU,-33.65,115.3333,55.83,72,97,22.77,overcast clouds
3,Arroyo,ES,41.6096,-4.7969,87.84,30,75,13.8,thunderstorm
4,Svetlogorsk,BY,52.6333,29.7333,57.4,87,100,3.85,overcast clouds
5,Buraydah,SA,26.326,43.975,100.85,12,0,5.23,clear sky
6,Ilhabela,BR,-23.7781,-45.3581,76.91,57,2,4.0,clear sky
7,Vanimo,PG,-2.6741,141.3028,76.51,88,27,3.71,scattered clouds
8,Dikson,RU,73.5069,80.5464,30.11,95,48,14.18,scattered clouds
9,Grand Gaube,MU,-20.0064,57.6608,69.39,77,1,1.99,clear sky
10,Berlevag,NO,70.8578,29.0864,42.8,81,75,4.61,broken clouds
11,Castro,BR,-24.7911,-50.0119,67.68,70,61,12.75,broken clouds
12,Provideniya,RU,64.3833,-173.3,49.57,51,15,1.48,few clouds
13,Rikitea,PF,-23.1203,-134.9692,72.32,66,54,2.37,broken clouds
14,Ilulissat,GL,69.2167,-51.1,36.0,94,100,5.68,light rain
15,Lebu,CL,-37.6167,-73.65,50.77,77,58,7.83,broken clouds
16,Abong Mbang,CM,3.9833,13.1833,68.31,96,97,2.46,moderate rain
17,Cape Town,ZA,-33.9258,18.4232,59.41,80,75,20.71,moderate rain
18,Weihe,CN,32.9952,105.3247,62.71,88,100,2.15,overcast clouds
19,Carnarvon,AU,-24.8667,113.6333,64.47,100,100,6.91,overcast clouds
20,Airai,TL,-8.9266,125.4092,57.11,94,65,3.4,broken clouds
21,Hermanus,ZA,-34.4187,19.2345,58.95,60,7,10.0,clear sky
22,Butaritari,KI,3.0707,172.7902,82.15,77,11,14.83,light rain
23,Khatanga,RU,71.9667,102.5,58.73,65,58,9.37,broken clouds
24,Port Alfred,ZA,-33.5906,26.891,63.7,45,32,11.45,scattered clouds
25,Alofi,NU,-19.0595,-169.9187,75.09,88,75,12.66,broken clouds
26,Manaure,CO,11.7751,-72.4445,89.67,54,80,19.55,broken clouds
27,Carrboro,US,35.9101,-79.0753,98.06,53,58,1.99,broken clouds
28,Yellowknife,CA,62.456,-114.3525,64.92,42,20,5.01,few clouds
29,Eureka,US,40.8021,-124.1637,63.18,68,47,3.0,scattered clouds
30,Hithadhoo,MV,-0.6,73.0833,82.08,74,100,8.48,overcast clouds
31,Albany,US,42.6001,-73.9662,82.94,45,10,15.19,clear sky
32,Vestmannaeyjar,IS,63.4427,-20.2734,54.59,76,40,23.02,scattered clouds
33,Kryvyy Rih,UA,47.9167,33.35,72.72,42,90,7.49,overcast clouds
34,Sibolga,ID,1.7427,98.7792,74.48,93,100,3.74,moderate rain
35,Ancud,CL,-41.8697,-73.8203,44.22,66,89,4.61,overcast clouds
36,Nikolskoye,RU,59.7035,30.7861,55.87,78,100,6.38,overcast clouds
37,Esperance,AU,-33.8667,121.9,57.04,87,10,21.36,clear sky
38,Vaini,TO,-21.2,-175.2,75.36,88,75,9.22,broken clouds
39,Hamilton,US,39.1834,-84.5333,87.89,58,76,5.99,broken clouds
40,Bonavista,CA,48.6499,-53.1147,51.1,76,6,20.65,clear sky
41,Council Bluffs,US,41.2619,-95.8608,88.39,49,0,9.22,clear sky
42,Jamestown,US,42.097,-79.2353,76.01,48,0,8.01,clear sky
43,Bredasdorp,ZA,-34.5322,20.0403,54.48,55,3,1.9,clear sky
44,Yulara,AU,-25.2406,130.9889,56.68,54,44,8.1,scattered clouds
45,Wuhu,CN,31.3366,118.3755,76.64,78,73,6.73,broken clouds
46,Halifax,CA,44.6453,-63.5724,61.7,89,100,20.71,mist
47,Puerto Ayora,EC,-0.7393,-90.3518,78.76,89,95,8.01,overcast clouds
48,Straseni,MD,47.1414,28.6103,67.93,81,84,4.5,broken clouds
49,Ingham,US,42.6,-84.3833,79.83,45,0,14.97,clear sky
50,Saint-Philippe,RE,-21.3585,55.7679,71.19,81,52,3.47,light rain
51,Nanortalik,GL,60.1432,-45.2371,47.07,69,100,22.57,overcast clouds
52,Lorengau,PG,-2.0226,147.2712,79.97,82,99,8.28,overcast clouds
53,Hilo,US,19.7297,-155.09,79.29,82,34,3.0,scattered clouds
54,Kailua,US,21.4022,-157.7394,79.48,75,75,11.5,broken clouds
55,Kapaa,US,22.0752,-159.319,76.12,85,34,3.0,scattered clouds
56,Khani,GE,41.9563,42.9566,60.37,94,70,0.89,broken clouds
57,Arraial Do Cabo,BR,-22.9661,-42.0278,78.76,61,0,14.97,clear sky
58,Cidreira,BR,-30.1811,-50.2056,64.06,97,100,6.31,light rain
59,Buy,RU,58.4786,41.53,53.51,88,39,1.3,scattered clouds
60,Fort Saint James,CA,54.4333,-124.25,50.02,96,100,1.59,overcast clouds
61,Makakilo City,US,21.3469,-158.0858,78.01,73,94,10.58,overcast clouds
62,Bengkulu,ID,-3.8004,102.2655,75.96,89,100,5.12,overcast clouds
63,Oistins,BB,13.0667,-59.5333,87.89,62,40,18.41,scattered clouds
64,Barrow,US,71.2906,-156.7887,41.97,80,94,7.31,overcast clouds
65,Lagoa,PT,39.05,-27.9833,67.57,89,0,7.05,clear sky
66,Sao Filipe,CV,14.8961,-24.4956,75.11,75,98,15.43,overcast clouds
67,Georgetown,MY,5.4112,100.3354,78.89,93,40,3.44,scattered clouds
68,Tambura,SS,5.6,27.4667,73.6,69,72,5.1,broken clouds
69,Avarua,CK,-21.2078,-159.775,75.25,73,100,6.91,overcast clouds
70,Thompson,CA,55.7435,-97.8558,55.56,28,20,2.3,few clouds
71,Mataura,NZ,-46.1927,168.8643,34.14,98,15,3.18,few clouds
72,Mar Del Plata,AR,-38.0023,-57.5575,50.09,82,75,23.02,broken clouds
73,Batemans Bay,AU,-35.7167,150.1833,46.38,84,59,4.27,broken clouds
74,Paamiut,GL,61.994,-49.6678,45.52,72,100,35.39,light rain
75,Ushuaia,AR,-54.8,-68.3,33.46,86,75,23.02,light snow
76,Mareeba,AU,-17.0,145.4333,66.92,98,23,2.37,few clouds
77,Saldanha,ZA,-33.0117,17.9442,57.25,91,50,21.3,scattered clouds
78,Portland,US,45.5234,-122.6762,57.2,88,100,4.0,light rain
79,Kavieng,PG,-2.5744,150.7967,82.53,70,72,14.23,broken clouds
80,Bellary,IN,15.15,76.9333,84.88,56,100,15.26,overcast clouds
81,Mildura,AU,-34.2,142.15,44.08,91,22,4.97,few clouds
82,Punta Arenas,CL,-53.15,-70.9167,39.31,56,40,17.27,scattered clouds
83,Noshiro,JP,40.2039,140.0242,59.95,96,57,5.28,broken clouds
84,Salisbury,GB,51.0693,-1.7957,80.69,67,19,9.15,few clouds
85,Qaanaaq,GL,77.484,-69.3632,39.88,82,6,3.78,clear sky
86,Bluff,NZ,-46.6,168.3333,47.52,78,65,16.82,broken clouds
87,Rabo De Peixe,PT,37.8,-25.5833,71.11,73,75,10.36,broken clouds
88,Srikakulam,IN,18.3,83.9,83.5,81,100,11.72,overcast clouds
89,Chuy,UY,-33.6971,-53.4616,60.69,45,99,15.1,overcast clouds
90,Urumqi,CN,43.801,87.6005,74.35,36,0,4.47,clear sky
91,Lidzbark Warminski,PL,54.1259,20.5795,60.87,83,9,6.44,clear sky
92,Kalmunai,LK,7.4167,81.8167,79.09,81,99,12.3,heavy intensity rain
93,Port Lincoln,AU,-34.7333,135.8667,53.8,68,0,12.01,clear sky
94,Loja,EC,-3.9931,-79.2042,67.41,50,40,4.61,scattered clouds
95,Codrington,AU,-38.2667,141.9667,47.79,90,6,4.88,clear sky
96,Atuona,PF,-9.8,-139.0333,78.46,65,1,18.66,clear sky
97,Constitucion,CL,-35.3333,-72.4167,56.88,56,10,10.65,clear sky
98,Danao,PH,10.5208,124.0272,80.65,82,8,4.43,clear sky
99,Fortuna,US,40.5982,-124.1573,62.91,63,75,4.61,broken clouds
100,Belaya Gora,RU,68.5333,146.4167,43.56,65,100,9.53,overcast clouds
101,San Juan,AR,-31.5375,-68.5364,65.64,15,1,9.8,clear sky
102,Bosaso,SO,11.2842,49.1816,91.35,49,20,5.21,few clouds
103,Upernavik,GL,72.7868,-56.1549,35.49,87,61,8.72,broken clouds
104,Darovskoy,RU,58.77,47.9564,56.14,86,50,4.5,scattered clouds
105,Palmas,BR,-10.2128,-48.3603,89.47,43,20,8.05,few clouds
106,Kibre Mengist,ET,5.8833,38.9833,60.39,92,99,2.13,light rain
107,Cochrane,CA,51.1834,-114.4687,67.6,62,100,6.91,overcast clouds
108,Hobart,AU,-42.8794,147.3294,48.25,97,100,3.44,moderate rain
109,Srednekolymsk,RU,67.45,153.6833,56.28,36,64,3.6,broken clouds
110,Parrsboro,CA,45.4001,-64.332,66.76,70,100,1.99,overcast clouds
111,Nago,JP,26.5881,127.9761,75.45,91,100,7.07,overcast clouds
112,Riyadh,SA,24.6877,46.7219,102.34,11,7,11.12,clear sky
113,Helena,US,46.5927,-112.0361,92.17,44,1,7.0,clear sky
114,Kiunga,PG,-6.1219,141.2906,72.12,100,76,1.03,broken clouds
115,The Valley,AI,18.217,-63.0578,85.86,74,40,10.36,scattered clouds
116,Colac,AU,-38.3333,143.5833,50.16,93,19,1.54,few clouds
117,Karratha,AU,-20.7377,116.8463,75.52,76,90,8.3,overcast clouds
118,Deputatskiy,RU,69.3,139.9,35.78,77,15,3.31,few clouds
119,Saint Anthony,US,45.0205,-93.218,81.79,41,0,4.0,clear sky
120,Isangel,VU,-19.55,169.2667,77.5,89,100,7.27,overcast clouds
121,Nome,US,64.5011,-165.4064,57.27,51,75,3.44,broken clouds
122,Poum,NC,-20.2333,164.0167,76.23,82,100,9.26,overcast clouds
123,Adrar,MR,20.5022,-10.0711,98.38,22,46,23.13,scattered clouds
124,Grindavik,IS,63.8424,-22.4338,53.55,87,75,26.46,broken clouds
125,Nochistlan,MX,21.3667,-102.85,74.21,41,68,5.44,broken clouds
126,Harper,LR,4.375,-7.7169,79.09,70,73,13.18,broken clouds
127,Pangai,TO,-19.8,-174.35,78.91,83,40,13.8,scattered clouds
128,East London,ZA,-33.0153,27.9116,61.74,51,0,6.91,clear sky
129,San Jeronimo,PE,-11.9472,-75.2829,62.46,30,1,2.98,clear sky
130,Shchigry,RU,51.8755,36.9043,66.02,85,100,4.7,overcast clouds
131,Havoysund,NO,70.9963,24.6622,43.03,67,97,12.21,overcast clouds
132,Tateyama,JP,34.9833,139.8667,68.09,91,100,11.95,overcast clouds
133,Kavaratti,IN,10.5669,72.642,83.26,65,100,15.66,overcast clouds
134,Saint George,US,37.1041,-113.5841,97.63,8,0,20.71,clear sky
135,Mendi,PG,-6.1761,143.6513,52.66,96,64,3.36,broken clouds
136,Vestmanna,FO,62.1564,-7.1664,45.52,93,100,26.46,moderate rain
137,Guerrero Negro,MX,27.9769,-114.0611,75.04,51,46,10.56,scattered clouds
138,Pangnirtung,CA,66.1451,-65.7125,35.6,93,75,16.11,broken clouds
139,New Norfolk,AU,-42.7826,147.0587,47.91,90,97,0.63,overcast clouds
140,Kutum,SD,14.2,24.6667,88.74,17,33,8.08,scattered clouds
141,San Francisco,US,37.7749,-122.4194,67.89,72,75,14.97,broken clouds
142,La Ferte-Bernard,FR,48.1863,0.6536,96.42,45,5,3.02,clear sky
143,Marsh Harbour,BS,26.5412,-77.0636,79.66,69,44,14.16,scattered clouds
144,Zambezi,ZM,-13.5432,23.1047,64.06,36,44,4.38,scattered clouds
145,Langxiang,CN,46.95,128.8833,52.27,96,0,3.94,clear sky
146,Lavrentiya,RU,65.5833,-171.0,45.79,61,17,1.32,few clouds
147,Shebunino,RU,46.4339,141.8603,54.36,99,89,5.39,overcast clouds
148,Faya,SA,18.3851,42.4509,75.72,54,89,3.83,overcast clouds
149,Jardim,BR,-21.4803,-56.1381,75.06,87,55,9.19,moderate rain
150,Flin Flon,CA,54.7682,-101.865,55.24,58,75,8.05,broken clouds
151,Chokurdakh,RU,70.6333,147.9167,36.93,73,98,9.62,overcast clouds
152,Birao,CF,10.2849,22.7882,78.66,67,88,5.73,overcast clouds
153,Kenai,US,60.5544,-151.2583,56.08,79,0,4.61,clear sky
154,Tuktoyaktuk,CA,69.4541,-133.0374,51.8,66,75,3.44,broken clouds
155,Bayanday,RU,53.0661,105.5139,60.01,94,91,4.72,light rain
156,Hirara,JP,24.8,125.2833,81.54,84,99,10.67,overcast clouds
157,Tasiilaq,GL,65.6145,-37.6368,38.39,84,60,8.34,broken clouds
158,Leningradskiy,RU,69.3833,178.4167,36.32,75,51,4.12,broken clouds
159,Erbaa,TR,40.6689,36.5675,65.59,88,40,4.18,scattered clouds
160,Pisco,PE,-13.7,-76.2167,67.01,72,0,11.5,haze
161,Geraldton,AU,-28.7667,114.6,64.81,72,40,16.11,scattered clouds
162,Nanga Eboko,CM,4.6833,12.3667,69.82,96,99,3.85,overcast clouds
163,Ribeira Grande,PT,38.5167,-28.7,70.2,83,40,5.75,scattered clouds
164,Asau,RO,46.4333,26.4,65.28,91,88,3.31,overcast clouds
165,Atasu,KZ,48.6814,71.6433,68.47,47,46,9.55,scattered clouds
166,Rudnyy,KZ,52.9594,63.1206,64.63,65,13,3.53,few clouds
167,Bambous Virieux,MU,-20.3428,57.7575,69.22,88,20,5.75,few clouds
168,Cabo San Lucas,MX,22.8909,-109.9124,88.61,63,66,3.02,broken clouds
169,Bilibino,RU,68.0546,166.4372,53.67,44,36,2.44,scattered clouds
170,Robertsport,LR,6.7533,-11.3686,76.19,91,100,19.82,heavy intensity rain
171,Bathsheba,BB,13.2167,-59.5167,88.41,62,40,18.41,scattered clouds
172,Kaitangata,NZ,-46.2817,169.8464,36.95,93,13,7.31,few clouds
173,Katsuura,JP,35.1333,140.3,71.42,89,100,11.18,overcast clouds
174,Altamont,US,42.2068,-121.7372,58.77,75,70,7.36,broken clouds
175,Kodiak,US,57.79,-152.4072,47.71,93,100,10.36,mist
176,Yandyki,RU,45.7691,47.1258,70.61,50,47,10.67,scattered clouds
177,San Cristobal,VE,7.7669,-72.225,78.98,75,100,6.02,overcast clouds
178,Magadan,RU,59.5667,150.8,45.54,91,100,2.57,overcast clouds
179,Tual,ID,-5.6667,132.75,81.93,76,34,16.53,scattered clouds
180,Pontianak,ID,-0.0333,109.3333,75.18,94,20,3.44,few clouds
181,Kintinku,TZ,-5.8833,35.2333,75.33,50,65,11.12,broken clouds
182,Husavik,IS,66.0449,-17.3389,45.3,98,100,15.23,light rain
183,Beringovskiy,RU,63.05,179.3167,47.68,74,0,3.6,clear sky
184,Sanchor,IN,24.7553,71.7722,91.2,54,3,18.77,clear sky
185,Baruun-Urt,MN,46.6806,113.2792,62.69,58,22,5.03,few clouds
186,Matamoros,MX,25.5333,-103.25,89.24,19,0,12.19,clear sky
187,Santiago,CL,-33.4569,-70.6483,60.28,49,49,3.44,scattered clouds
188,Araouane,ML,18.9048,-3.5265,96.48,26,98,18.28,overcast clouds
189,Charters Towers,AU,-20.1,146.2667,59.77,93,24,7.34,few clouds
190,Hofn,IS,64.2539,-15.2082,55.42,62,75,13.8,broken clouds
191,Ous,RU,60.9058,61.5186,62.58,83,44,1.57,scattered clouds
192,Itarema,BR,-2.9248,-39.9167,82.2,70,88,11.52,overcast clouds
193,Ahipara,NZ,-35.1667,173.1667,57.31,93,94,6.98,moderate rain
194,Tsumeb,NA,-19.2333,17.7167,65.5,28,2,4.14,clear sky
195,Laguna,US,38.421,-121.4238,70.18,45,0,9.22,clear sky
196,Taltal,CL,-25.4,-70.4833,63.09,59,0,6.6,clear sky
197,Tilichiki,RU,60.4667,166.1,44.01,94,100,2.68,light rain
198,Sao Gabriel,BR,-30.3364,-54.32,55.15,93,99,15.55,overcast clouds
199,Bangassou,CF,4.7413,22.8184,70.36,98,100,9.42,heavy intensity rain
200,Costa Rica,BR,-23.4167,-54.65,68.77,93,64,12.68,broken clouds
201,Aklavik,CA,68.2191,-135.0107,70.92,34,58,18.03,broken clouds
202,Bilma,NE,18.6853,12.9164,100.2,11,46,12.57,scattered clouds
203,Padang,ID,-0.9492,100.3543,73.45,91,100,3.27,overcast clouds
204,Port Hueneme,US,34.1478,-119.1951,78.33,71,90,7.0,overcast clouds
205,Jasidih,IN,24.5167,86.65,82.22,73,90,7.49,moderate rain
206,Kruisfontein,ZA,-34.0033,24.7314,59.11,31,27,6.91,scattered clouds
207,Banamba,ML,13.55,-7.45,90.97,37,95,3.65,light rain
208,Sitka,US,57.0531,-135.33,61.16,72,86,5.95,overcast clouds
209,Osorno,CL,-40.5667,-73.15,49.24,71,40,5.75,scattered clouds
210,Saskylakh,RU,71.9167,114.0833,60.1,47,100,11.16,overcast clouds
211,Lujan,AR,-34.5703,-59.105,55.11,43,18,19.8,few clouds
212,Nabire,ID,-3.3667,135.4833,74.89,91,83,3.15,broken clouds
213,Varzea Da Palma,BR,-17.5981,-44.7308,85.84,19,0,2.68,clear sky
214,Crawfordsville,US,40.0411,-86.8745,85.51,55,43,14.41,scattered clouds
215,Kawalu,ID,-7.3817,108.2082,72.86,95,99,1.41,overcast clouds
216,Puerto Madryn,AR,-42.7692,-65.0385,49.69,40,2,22.86,clear sky
217,Panaba,MX,21.2833,-88.2667,92.28,46,91,9.75,overcast clouds
218,Uyemskiy,RU,64.4743,40.8524,59.05,82,75,0.0,broken clouds
219,Karangasem,ID,-8.45,115.6167,77.9,84,49,7.34,scattered clouds
220,Port Elizabeth,ZA,-33.918,25.5701,53.89,76,0,3.44,clear sky
221,Vite,IN,17.2833,74.55,76.77,69,100,14.29,overcast clouds
222,Lavumisa,SZ,-27.31,31.892,55.76,53,0,3.58,clear sky
223,Camabatela,AO,-8.1881,15.375,65.95,48,100,3.91,overcast clouds
224,Port Blair,IN,11.6667,92.75,80.64,89,40,2.3,mist
225,Tiksi,RU,71.6872,128.8694,31.48,91,97,5.12,overcast clouds
226,Shetpe,KZ,44.1667,52.1167,76.8,47,73,16.71,light rain
227,Severo-Kurilsk,RU,50.6789,156.125,49.17,76,100,8.16,overcast clouds
228,Miyako,JP,39.6367,141.9525,59.05,87,0,4.92,clear sky
229,Puerto Carreno,CO,6.189,-67.4859,87.78,62,40,4.61,scattered clouds
230,Sambava,MG,-14.2667,50.1667,72.45,87,6,5.03,clear sky
231,Digha,IN,21.6833,87.55,84.38,79,100,18.01,overcast clouds
232,Denpasar,ID,-8.65,115.2167,82.06,89,40,9.22,scattered clouds
233,Allonnes,FR,47.9674,0.1581,96.84,20,0,3.44,clear sky
234,Goderich,CA,43.7501,-81.7165,66.9,72,0,6.91,clear sky
235,Carora,VE,10.1755,-70.0827,97.39,29,55,12.55,broken clouds
236,Sergeyevka,KZ,53.88,67.4158,63.14,82,82,3.2,broken clouds
237,Kandrian,PG,-6.2167,149.55,75.47,93,99,6.64,moderate rain
238,Puerto Maldonado,PE,-12.6,-69.1833,86.4,58,40,5.75,scattered clouds
239,Sola,VU,-13.8833,167.55,81.09,78,100,17.34,overcast clouds
240,Vao,NC,-22.6667,167.4833,75.04,83,100,14.61,overcast clouds
241,Hammerfest,NO,70.6634,23.6821,45.05,65,0,12.66,clear sky
242,Kayan,MM,16.9056,96.5631,80.74,85,99,6.15,overcast clouds
243,Bulawayo,ZW,-20.15,28.5833,57.96,45,0,6.22,clear sky
244,Salalah,OM,17.0151,54.0924,83.25,86,36,7.81,scattered clouds
245,Komsomolskiy,UZ,40.4272,71.7189,79.52,27,100,4.61,overcast clouds
246,Port-Gentil,GA,-0.7193,8.7815,76.96,78,75,8.05,broken clouds
247,Marzuq,YE,14.4,46.4667,82.92,45,87,5.93,overcast clouds
248,Ponta Do Sol,PT,32.6667,-17.1,74.03,66,41,1.28,scattered clouds
249,Hay River,CA,60.8156,-115.7999,55.38,58,75,9.22,broken clouds
250,Lopatino,RU,52.6195,45.8118,60.69,68,85,5.08,overcast clouds
251,Lagunas,PE,-5.2269,-75.6753,91.13,44,17,1.54,few clouds
252,Nuevo Progreso,MX,23.1667,-97.95,92.53,52,29,4.0,scattered clouds
253,Nizhniy Ingash,RU,56.2,96.53,55.24,88,100,4.5,overcast clouds
254,Kismayo,SO,-0.3582,42.5454,77.79,80,37,12.66,scattered clouds
255,Liberal,US,37.0431,-100.921,94.24,16,0,18.9,clear sky
256,Teacapan,MX,22.55,-105.75,86.45,67,53,10.25,broken clouds
257,Stornoway,GB,58.2093,-6.3865,55.92,67,40,23.02,scattered clouds
258,Guaruja,BR,-23.9931,-46.2564,89.46,29,0,5.75,clear sky
259,Viking,CA,53.1001,-111.7684,62.46,76,100,12.59,overcast clouds
260,Luderitz,NA,-26.6481,15.1594,56.62,89,0,4.97,clear sky
261,Anadyr,RU,64.75,177.4833,54.1,62,40,4.47,scattered clouds
262,Rocha,UY,-34.4833,-54.3333,55.31,53,64,20.18,broken clouds
263,Mandiana,GN,10.6333,-8.6833,81.73,63,69,7.29,light rain
264,Vondrozo,MG,-22.8167,47.2833,55.76,85,0,2.86,clear sky
265,La Plata,AR,-34.9215,-57.9545,54.03,34,10,18.12,clear sky
266,Huilong,CN,31.8111,121.655,75.92,96,84,10.33,broken clouds
267,Hualmay,PE,-11.0964,-77.6139,66.27,70,36,9.06,scattered clouds
268,Comodoro Rivadavia,AR,-45.8667,-67.5,48.06,43,0,29.93,clear sky
269,San Patricio,US,28.017,-97.5169,93.29,39,53,13.65,broken clouds
270,Mount Pleasant,US,32.7941,-79.8626,95.99,59,0,10.36,clear sky
271,Sakakah,SA,29.9697,40.2064,103.57,12,0,14.25,clear sky
272,Faanui,PF,-16.4833,-151.75,79.9,72,5,17.72,clear sky
273,La Ronge,CA,55.1001,-105.2842,55.65,71,100,13.8,overcast clouds
274,Cherskiy,RU,68.75,161.3,43.34,57,94,6.24,overcast clouds
275,Seeboden,AT,46.8219,13.495,69.51,64,75,2.48,broken clouds
276,Tomarovka,RU,50.6834,36.2331,65.16,71,99,2.3,overcast clouds
277,Port Pirie,AU,-33.1833,138.0167,50.79,70,0,6.78,clear sky
278,Lucapa,AO,-8.4192,20.7447,73.09,27,24,3.44,few clouds
279,Norman Wells,CA,65.282,-126.8329,62.64,39,20,17.27,few clouds
280,Souillac,MU,-20.5167,57.5167,68.38,88,20,5.75,few clouds
281,Bethel,US,41.3712,-73.414,89.15,55,44,4.0,scattered clouds
282,Jaisalmer,IN,26.9147,70.9181,89.58,51,0,25.39,clear sky
283,Hami,CN,42.8,93.45,79.81,20,87,18.43,overcast clouds
284,Shache,CN,38.4167,77.2406,78.89,18,100,1.54,overcast clouds
285,Awjilah,LY,29.1081,21.2869,89.38,21,0,10.16,clear sky
286,Magway,MM,20.15,94.9167,80.91,73,100,5.99,overcast clouds
287,Yar-Sale,RU,66.8333,70.8333,53.51,52,68,9.04,broken clouds
288,Umm Lajj,SA,25.0213,37.2685,88.07,52,0,8.79,clear sky
289,Flinders,AU,-34.5833,150.8552,57.18,72,65,7.0,broken clouds
290,Sabzevar,IR,36.2126,57.6819,83.48,28,0,11.5,clear sky
291,Cayenne,GF,4.9333,-52.3333,86.04,11,75,11.5,broken clouds
292,Davila,PH,18.4726,120.5763,82.04,74,91,6.49,overcast clouds
293,Emba,KZ,48.8264,58.1442,73.04,46,95,2.91,overcast clouds
294,Namibe,AO,-15.1961,12.1522,66.83,72,20,12.66,few clouds
295,Fort Nelson,CA,58.8053,-122.7002,56.79,88,75,10.36,broken clouds
296,Bonfim,BR,3.0833,-59.95,85.91,61,21,2.57,few clouds
297,Alta Floresta,BR,-9.8756,-56.0861,93.02,36,40,5.75,scattered clouds
298,Terra Nova,BR,-12.3667,-40.6667,83.23,26,41,3.91,scattered clouds
299,Alice Springs,AU,-23.7,133.8833,44.15,87,16,3.44,few clouds
300,Broome,US,42.2506,-75.833,82.53,51,0,11.01,clear sky
301,Camacha,PT,33.0833,-16.3333,69.22,64,40,16.11,scattered clouds
302,Iqaluit,CA,63.7506,-68.5145,37.13,86,100,16.11,overcast clouds
303,Asfi,MA,32.2994,-9.2372,71.1,76,23,21.63,few clouds
304,Acari,PE,-15.4311,-74.6158,72.09,53,38,9.06,scattered clouds
305,Carbondale,US,37.7273,-89.2168,81.05,78,40,3.44,scattered clouds
306,Bundaberg,AU,-24.85,152.35,52.21,80,1,1.99,clear sky
307,Surt,LY,31.2089,16.5887,76.84,67,0,9.31,clear sky
308,Havre-Saint-Pierre,CA,50.2334,-63.5986,57.56,88,100,9.22,overcast clouds
309,Rapid Valley,US,44.0625,-103.1463,84.76,54,0,20.0,clear sky
310,Aswan,EG,24.0934,32.907,99.7,15,0,6.91,clear sky
311,Namatanai,PG,-3.6667,152.4333,78.91,81,70,5.84,broken clouds
312,Nouadhibou,MR,20.931,-17.0347,73.38,68,0,25.32,sand
313,Santa Rita,BR,-7.1139,-34.9781,84.87,58,40,8.05,scattered clouds
314,Beloha,MG,-25.1667,45.05,63.61,61,33,3.78,scattered clouds
315,Amuntai,ID,-2.4177,115.2494,72.19,99,86,1.74,overcast clouds
316,Jacareacanga,BR,-6.2222,-57.7528,91.78,34,3,3.62,clear sky
317,Indianola,US,41.3581,-93.5574,85.87,57,47,5.93,scattered clouds
318,Peniche,PT,39.3558,-9.3811,73.29,83,100,10.27,overcast clouds
319,Rovaniemi,FI,66.5,25.7167,54.81,62,100,5.75,overcast clouds
320,Nouakchott,MR,18.0858,-15.9785,85.93,55,45,20.92,scattered clouds
321,Mindelo,CV,16.8901,-24.9804,80.15,57,20,23.02,few clouds
322,Sozimskiy,RU,59.7418,52.2482,56.05,84,87,3.42,overcast clouds
323,Buckeye,US,33.3703,-112.5838,106.12,8,54,8.05,broken clouds
324,Valente,BR,-11.4122,-39.4619,83.23,38,55,6.51,broken clouds
325,Bandarbeyla,SO,9.4942,50.8122,77.97,81,45,28.97,scattered clouds
326,Launceston,AU,-41.45,147.1667,45.16,93,75,6.91,light rain
327,Rioja,AR,-29.4111,-66.8507,68.36,20,2,6.82,clear sky
328,Fairbanks,US,64.8378,-147.7164,69.49,62,34,2.73,scattered clouds
329,Phalombe,MW,-15.8064,35.6507,59.07,92,36,4.79,scattered clouds
330,Seminole,US,28.7086,-81.2081,98.28,62,57,1.99,broken clouds
331,Moron,AR,-34.6534,-58.6198,55.15,40,17,14.83,few clouds
332,Rusape,ZW,-18.5278,32.1284,54.14,79,2,5.26,clear sky
333,Mogok,MM,22.9167,96.5,64.15,98,100,3.13,overcast clouds
334,Victoria,HK,22.2855,114.1577,84.38,86,97,8.99,overcast clouds
335,Necochea,AR,-38.5473,-58.7368,47.61,69,99,27.92,overcast clouds
336,Japura,ID,-0.3167,102.35,73.8,99,96,0.74,overcast clouds
337,Kloulklubed,PW,7.0419,134.2556,82.81,70,86,4.41,overcast clouds
338,Hervey Bay,AU,-25.2986,152.8535,57.11,67,12,10.65,few clouds
339,Vila Velha,BR,-20.3297,-40.2925,80.55,67,0,12.66,clear sky
340,Narsaq,GL,60.9167,-46.05,44.24,70,100,3.18,overcast clouds
341,Klyuchi,RU,52.2667,79.1667,58.57,79,79,7.49,broken clouds
342,Karasburg,NA,-28.0167,18.75,59.41,19,0,9.37,clear sky
343,Honningsvag,NO,70.9821,25.9704,42.55,70,75,8.05,broken clouds
344,Lamont,US,35.2597,-118.9143,77.54,45,93,6.11,overcast clouds
345,Tornio,FI,65.8481,24.1466,60.82,74,68,5.46,broken clouds
346,Fuyang,CN,32.9,115.8167,81.55,53,27,7.09,scattered clouds
347,Rio Gallegos,AR,-51.6226,-69.2181,42.85,61,40,25.32,scattered clouds
348,Dibulla,CO,11.2725,-73.3091,88.52,65,37,5.86,scattered clouds
349,Obidos,BR,-1.9175,-55.5181,87.17,47,4,5.73,clear sky
350,Nizwa,OM,22.9333,57.5333,95.94,24,34,5.48,scattered clouds
351,Svetlyy,RU,54.675,20.1347,66.96,84,36,7.18,scattered clouds
352,Katherine,AU,-14.4667,132.2667,61.12,48,9,6.91,clear sky
353,Williamsburg,US,37.2707,-76.7075,98.37,52,0,9.22,clear sky
354,Tiarei,PF,-17.5333,-149.3333,75.22,72,10,15.95,clear sky
355,Verkhnevilyuysk,RU,63.4453,120.3167,49.1,60,1,2.93,clear sky
356,Evensk,RU,61.95,159.2333,45.18,97,100,2.37,light rain
357,Spas-Demensk,RU,54.4122,34.0226,54.5,95,82,4.29,broken clouds
358,Russell,US,32.3502,-85.1999,93.96,37,34,6.38,scattered clouds
359,Barranca,PE,-10.75,-77.7667,66.09,67,52,8.75,broken clouds
360,Vung Tau,VN,10.346,107.0843,83.61,76,99,7.83,overcast clouds
361,Los Llanos De Aridane,ES,28.6585,-17.9182,72.12,80,75,16.11,broken clouds
362,Shasta Lake,US,40.6804,-122.3708,64.96,54,52,2.98,broken clouds
363,Lata,PT,40.1629,-8.3327,69.82,56,61,9.24,broken clouds
364,Junction City,US,39.0286,-96.8314,93.65,64,19,8.01,few clouds
365,Goundam,ML,16.4145,-3.6708,97.54,28,26,18.05,scattered clouds
366,Caravelas,BR,-17.7125,-39.2481,76.06,63,47,5.19,scattered clouds
367,Touros,BR,-5.1989,-35.4608,82.18,62,84,13.24,broken clouds
368,Jieshi,CN,22.8134,115.8257,79.63,91,93,8.88,overcast clouds
369,Banepa,NP,27.6298,85.5214,73.72,73,75,2.3,broken clouds
370,Joshimath,IN,30.5667,79.5667,66.07,79,77,2.95,broken clouds
371,Severo-Yeniseyskiy,RU,60.3725,93.0408,50.16,98,78,4.59,broken clouds
372,Ulladulla,AU,-35.35,150.4667,40.77,86,40,7.58,scattered clouds
373,Andenes,NO,69.3143,16.1194,48.18,87,75,14.97,broken clouds
374,Gedo,ET,9.0167,37.45,56.86,82,76,0.87,light rain
375,Wenatchee,US,47.4235,-120.3103,62.04,61,100,6.51,overcast clouds
376,Savelugu,GH,9.6244,-0.8253,83.89,60,93,4.05,overcast clouds
377,Acapulco,MX,16.8634,-99.8901,82.69,69,94,6.44,overcast clouds
378,Fare,PF,-16.7,-151.0167,80.11,68,6,18.05,clear sky
379,Altay,CN,47.8667,88.1167,55.08,57,10,4.07,clear sky
380,Kang,BW,-23.6752,22.7876,56.62,20,2,7.29,clear sky
381,Shitkino,RU,56.3703,98.3543,58.32,77,100,2.13,overcast clouds
382,Anandnagar,IN,27.1,83.2833,90.3,49,43,6.31,scattered clouds
383,Pec,XK,42.6591,20.2883,61.59,93,100,1.43,overcast clouds
384,Shatki,RU,55.1887,44.1249,60.87,71,88,5.12,overcast clouds
385,Aripuana,BR,-9.1667,-60.6333,92.62,33,13,4.5,few clouds
386,Berdigestyakh,RU,62.0989,126.6992,49.35,92,66,2.77,broken clouds
387,Smithers,CA,54.7804,-127.1743,53.92,94,100,9.22,light intensity shower rain
388,Coari,BR,-4.085,-63.1414,89.46,46,34,3.0,scattered clouds
389,Marawi,PH,7.9986,124.2928,68.63,93,40,3.29,scattered clouds
390,Hasaki,JP,35.7333,140.8333,66.6,84,100,6.08,overcast clouds
391,Tautira,PF,-17.7333,-149.15,78.64,70,39,14.94,scattered clouds
392,Muisne,EC,0.6,-80.0333,76.05,81,100,12.93,overcast clouds
393,Saravena,CO,6.9538,-71.8752,77.65,81,100,3.69,overcast clouds
394,Coihaique,CL,-45.5752,-72.0662,41.61,75,75,6.91,light intensity shower rain
395,Saint John,CA,45.2727,-66.0677,58.23,100,100,21.85,light intensity drizzle
396,San Andres,CO,12.5847,-81.7006,86.02,74,40,6.91,scattered clouds
397,Garissa,KE,-0.4536,39.6401,79.25,61,61,22.12,broken clouds
398,Mathbaria,BD,22.2876,89.9593,80.71,85,100,12.82,heavy intensity rain
399,Awbari,LY,26.5921,12.7805,88.97,16,0,9.1,clear sky
400,Dingle,PH,10.9995,122.6711,78.26,85,32,3.98,scattered clouds
401,Dubovka,RU,49.0583,44.829,70.75,60,44,7.45,scattered clouds
402,Khandbari,NP,27.3747,87.2039,72.61,86,65,0.56,broken clouds
403,Eyl,SO,7.9803,49.8164,78.26,83,88,20.69,overcast clouds
404,Saraland,US,30.8207,-88.0706,96.06,55,38,2.59,scattered clouds
405,Madison,US,34.7334,-86.5667,94.44,59,20,10.36,few clouds
406,Havre,FR,49.5833,0.3333,89.35,37,0,9.22,clear sky
407,Porto Novo,BJ,6.4965,2.6036,78.62,92,99,6.44,light rain
408,Corinto,GR,37.9407,22.9573,81.9,50,2,2.33,clear sky
409,Havelock,US,34.8791,-76.9013,95.95,63,20,14.97,few clouds
410,Jalu,LY,29.0331,21.5482,89.44,21,0,11.86,clear sky
411,Dudinka,RU,69.4058,86.1778,51.62,67,39,8.88,scattered clouds
412,Alghero,IT,40.5589,8.3181,82.49,74,0,4.61,clear sky
413,Minab,IR,27.1467,57.0801,91.72,66,0,2.3,haze
414,Pierre,US,44.3683,-100.351,83.86,47,0,11.99,clear sky
415,Mahebourg,MU,-20.4081,57.7,69.26,88,20,5.75,few clouds
416,Wanning,CN,18.8003,110.3967,81.01,93,79,11.9,broken clouds
417,Vostok,RU,46.4856,135.8833,53.92,98,100,3.94,overcast clouds
418,Kodinsk,RU,58.6881,99.1844,55.81,87,87,2.68,overcast clouds
419,Praia Da Vitoria,PT,38.7333,-27.0667,73.76,88,75,10.69,broken clouds
420,Chimbote,PE,-9.0853,-78.5783,66.85,69,83,10.13,broken clouds
421,Talnakh,RU,69.4865,88.3972,51.21,72,24,7.54,few clouds
422,Antequera,ES,37.0194,-4.5612,90.45,20,91,9.93,overcast clouds
423,Sarangani,PH,5.4033,125.4636,82.81,73,7,8.52,clear sky
424,Inhambane,MZ,-23.865,35.3833,62.58,88,0,0.0,clear sky
425,Cap Malheureux,MU,-19.9842,57.6142,69.48,77,0,1.99,clear sky
426,Atyrau,KZ,47.1167,51.8833,64.42,88,75,20.13,light intensity shower rain
427,Syracuse,IT,37.0881,15.2792,79.97,63,24,2.89,few clouds
428,Sawakin,SD,19.1059,37.3321,93.67,40,0,7.27,clear sky
429,Epiniana,GR,39.1429,21.6134,65.73,80,40,2.89,scattered clouds
430,Kaoma,ZM,-14.7833,24.8,61.61,36,3,4.81,clear sky
431,Dakar,SN,14.6937,-17.4441,83.28,69,40,13.8,scattered clouds
432,Hudson Bay,CA,52.85,-102.3842,65.34,56,90,7.99,overcast clouds
433,Pevek,RU,69.7008,170.3133,34.81,77,83,2.8,broken clouds
434,Tynda,RU,55.1667,124.7167,49.68,94,98,2.98,overcast clouds
435,Mawlaik,MM,23.6333,94.4167,75.67,95,100,0.58,overcast clouds
436,Gloversville,US,43.0528,-74.3438,80.42,62,75,17.27,broken clouds
437,Coquimbo,CL,-29.9533,-71.3436,58.73,62,0,11.5,clear sky
438,North Bend,US,43.4065,-124.2243,60.17,89,100,16.11,overcast clouds
439,Sokoni,TZ,-6.4333,39.55,78.66,73,19,15.59,few clouds
440,Ohrid,MK,41.1172,20.8019,60.69,88,75,10.36,broken clouds
441,Vanderhoof,CA,54.0166,-124.0198,49.46,97,100,2.59,overcast clouds
442,Sur,OM,22.5667,59.5289,89.76,64,11,9.64,few clouds
443,Dahanu,IN,19.9667,72.7333,83.82,80,99,13.31,overcast clouds
444,Jumla,NP,29.2747,82.1838,62.29,86,88,2.55,overcast clouds
445,Mandalgovi,MN,45.7625,106.2708,73.33,37,52,7.72,broken clouds
446,Marrakesh,MA,31.6315,-8.0083,96.87,30,40,11.5,scattered clouds
447,Nizhniy Tsasuchey,RU,50.5167,115.1333,63.95,68,81,2.84,broken clouds
448,Henties Bay,NA,-22.116,14.2845,57.69,86,1,5.48,clear sky
449,Cabimas,VE,10.3883,-71.4399,87.48,64,65,6.93,broken clouds
450,Taoudenni,ML,22.6783,-3.9836,92.07,36,77,21.27,broken clouds
451,Birin,NP,26.8865,88.0718,62.55,97,69,0.87,broken clouds
452,Hede,CN,33.7681,120.2517,79.05,61,0,7.74,clear sky
453,Goldsboro,US,35.3849,-77.9928,96.4,49,0,9.22,clear sky
454,Radomsko,PL,51.0671,19.4448,65.52,76,63,5.95,broken clouds
455,Benguela,AO,-12.5763,13.4055,68.52,82,20,8.68,few clouds
456,Katobu,ID,-4.9408,122.5276,74.25,95,100,2.59,overcast clouds
457,Road Town,VG,18.4167,-64.6167,87.84,70,40,8.05,scattered clouds
458,Lekoni,GA,-1.5843,14.2591,75.79,70,100,4.79,light rain
459,Zeya,RU,53.75,127.2667,54.25,70,36,3.02,scattered clouds
460,Nayoro,JP,44.3506,142.4578,54.27,99,90,3.51,overcast clouds
461,Howard Springs,AU,-12.497,131.047,73.31,84,22,6.78,few clouds
462,Devarkonda,IN,16.7,78.9333,85.44,65,100,12.1,overcast clouds
463,Lotofaga,WS,-13.9764,-171.8578,73.18,78,81,24.0,broken clouds
464,Traralgon,AU,-38.1833,146.5333,43.9,99,30,2.37,scattered clouds
465,Aykhal,RU,66.0,111.5,62.24,51,50,14.16,scattered clouds
466,Buchanan,LR,5.8808,-10.0467,77.95,82,100,14.67,moderate rain
467,Menongue,AO,-14.6585,17.691,61.93,39,40,4.61,scattered clouds
468,Emmett,US,43.8735,-116.4993,72.97,51,53,6.42,broken clouds
469,Dodoma,TZ,-6.1722,35.7395,68.18,63,63,12.08,broken clouds
470,Steinbach,DE,50.1667,8.5667,85.1,21,0,6.91,clear sky
471,Egvekinot,RU,66.3167,-179.1667,36.32,92,99,4.23,overcast clouds
472,Bucak,TR,37.4592,30.595,73.92,47,3,1.32,clear sky
473,Maneadero,MX,31.7167,-116.5667,67.1,75,8,5.99,clear sky
474,Batagay-Alyta,RU,67.8006,130.4114,42.1,54,58,1.95,broken clouds
475,Cabedelo,BR,-6.9811,-34.8339,84.87,64,70,6.69,broken clouds
476,Qaqortoq,GL,60.7167,-46.0333,41.65,78,100,4.65,overcast clouds
477,Mormugao,IN,15.4,73.8,79.86,83,75,8.05,broken clouds
478,General Roca,AR,-39.0333,-67.5833,56.62,22,0,20.51,clear sky
479,Turmalina,BR,-17.2856,-42.73,81.88,25,0,2.17,clear sky
480,Kalianget,ID,-7.05,113.9333,80.49,80,84,4.05,broken clouds
481,Muzhi,RU,65.3667,64.6667,65.61,53,62,11.23,broken clouds
482,Tessalit,ML,20.1986,1.0114,86.05,37,99,16.84,overcast clouds
483,Morondava,MG,-20.2833,44.2833,73.38,63,0,14.9,clear sky
484,Avera,US,33.194,-82.5271,97.56,29,22,8.39,few clouds
485,Olafsvik,IS,64.8945,-23.7142,46.58,90,100,22.75,overcast clouds
486,Haverfordwest,GB,51.8017,-4.9691,64.06,86,26,4.0,scattered clouds
487,San Policarpo,PH,12.1791,125.5072,81.72,79,71,7.83,broken clouds
488,Quelimane,MZ,-17.8786,36.8883,71.55,78,20,3.44,few clouds
489,Chany,RU,55.3121,76.7647,54.86,95,69,7.11,broken clouds
490,Linkoping,SE,58.4109,15.6216,70.99,53,75,17.27,broken clouds
491,Lapithos,CY,35.3375,33.1792,84.49,69,0,14.54,clear sky
492,Vardo,NO,70.3705,31.1107,40.98,93,100,8.05,overcast clouds
493,Alanya,TR,36.5438,31.9998,80.08,67,0,3.53,clear sky
494,Goundi,TD,9.3627,17.366,79.99,71,89,4.0,light rain
495,Tayu,ID,-6.5397,111.0518,77.76,82,89,2.68,overcast clouds
496,San Ramon,US,37.7799,-121.978,67.39,62,75,12.66,broken clouds
497,Chipata,ZM,-13.6333,32.65,59.9,77,43,5.79,scattered clouds
498,Oranjestad,AW,12.524,-70.027,87.75,66,40,23.02,scattered clouds
499,Khorixas,NA,-20.3667,14.9667,63.39,40,0,3.51,clear sky
500,Puerto Escondido,MX,15.85,-97.0667,84.83,64,100,10.76,overcast clouds
501,Magdalena,PH,14.1999,121.429,83.35,94,54,3.6,broken clouds
502,La Libertad,EC,-2.2333,-80.9,73.06,78,75,11.5,broken clouds
503,Kumluca,TR,36.3703,30.2869,81.3,57,0,4.63,clear sky
504,Santa Maria,BR,-29.6842,-53.8069,56.5,100,75,10.36,mist
505,Changuinola,PA,9.4333,-82.5167,79.36,82,100,2.75,overcast clouds
506,San Carlos De Bariloche,AR,-41.1456,-71.3082,40.75,52,40,25.32,scattered clouds
507,San Pedro De Macoris,DO,18.4616,-69.2972,88.41,61,90,14.88,overcast clouds
508,San Roque,ES,36.2107,-5.3842,79.63,54,0,6.91,clear sky
509,Richards Bay,ZA,-28.783,32.0377,59.61,51,0,7.65,clear sky
510,Port-Cartier,CA,50.0334,-66.8654,55.74,99,100,7.61,overcast clouds
511,Calvia,ES,39.5657,2.5062,95.07,40,28,0.98,scattered clouds
512,Viedma,AR,-40.8135,-62.9967,48.56,39,6,20.51,clear sky
513,Safranbolu,TR,41.2508,32.6942,62.15,93,33,2.35,scattered clouds
514,Doha,QA,25.2867,51.5333,96.78,16,0,4.61,clear sky
515,Torbay,CA,47.6666,-52.7314,66.27,72,40,13.8,scattered clouds
516,Sinnamary,GF,5.3833,-52.95,80.94,80,58,8.05,broken clouds
517,Atar,MR,20.5169,-13.0499,107.8,13,17,16.98,few clouds
518,Sioux Lookout,CA,50.1001,-91.917,59.07,44,20,8.05,few clouds
519,Arbroath,GB,56.5632,-2.5874,64.67,66,100,16.87,overcast clouds
520,Zhigansk,RU,66.7697,123.3711,49.84,50,42,7.76,scattered clouds
521,Wilmington,US,34.2257,-77.9447,93.88,60,53,5.99,broken clouds
522,Agua Branca,BR,-5.8922,-42.6361,86.56,51,41,3.11,scattered clouds
523,Lompoc,US,34.6391,-120.4579,68.77,69,100,15.99,overcast clouds
524,Farmington,US,36.7281,-108.2187,93.78,18,16,5.99,few clouds
525,Juazeiro,BR,-9.4117,-40.4986,86.18,39,20,6.91,light rain
526,General Pico,AR,-35.6566,-63.7568,57.42,20,0,15.66,clear sky
527,Ahuimanu,US,21.4447,-157.8378,78.37,76,93,4.0,overcast clouds
528,Puli,TW,23.9664,120.9695,78.22,90,99,4.61,overcast clouds
529,Am Timan,TD,11.0297,20.2827,88.38,41,95,0.49,overcast clouds
530,Udachnyy,RU,66.4167,112.4,62.46,51,38,8.86,scattered clouds
531,Thohoyandou,ZA,-22.9456,30.485,55.78,57,0,3.76,clear sky
532,Christchurch,NZ,-43.5333,172.6333,42.91,90,75,4.61,broken clouds
533,Antalaha,MG,-14.9003,50.2788,70.25,92,9,5.08,light rain
534,Miles City,US,46.4083,-105.8406,90.57,39,0,24.74,clear sky
535,Candolim,IN,15.5181,73.7626,80.6,83,75,8.05,broken clouds
536,Gat,IL,31.61,34.7642,78.82,100,0,7.47,clear sky
537,Laramie,US,41.3114,-105.5911,88.09,20,5,4.0,clear sky
538,Bonthe,SL,7.5264,-12.505,73.11,96,100,4.99,moderate rain
539,Bam,IR,29.106,58.357,92.73,11,0,13.69,clear sky
540,Ust-Kuyga,RU,70.0167,135.6,39.07,76,38,5.12,scattered clouds
541,Panjab,AF,34.388,67.0233,53.26,44,9,10.16,clear sky
542,Lincoln,US,40.8,-96.667,88.27,61,31,5.01,scattered clouds
543,Magadi,IN,12.9667,77.2333,77.16,85,100,3.02,overcast clouds
544,Brainerd,US,46.358,-94.2008,79.05,48,0,8.01,clear sky
545,La Primavera,CO,5.4906,-70.4092,85.1,64,82,4.63,broken clouds
546,Goryachegorsk,RU,55.4053,88.9154,54.7,83,57,6.24,broken clouds
547,Bone,DE,51.9669,12.1396,76.28,48,100,4.61,overcast clouds
548,Dawson Creek,CA,55.7666,-120.2362,53.24,94,100,6.91,overcast clouds
549,Fort-Shevchenko,KZ,44.5086,50.263,71.44,74,83,27.45,light rain
550,Isilkul,RU,54.9109,71.2728,61.48,76,91,6.42,overcast clouds
551,Inverness,GB,57.4791,-4.224,60.84,53,20,28.77,dust
552,Loandjili,CG,-4.7561,11.8578,74.23,76,82,7.52,broken clouds
553,Waingapu,ID,-9.6567,120.2641,75.99,85,43,8.72,scattered clouds
554,Scottsbluff,US,41.8666,-103.6672,88.79,37,49,20.22,scattered clouds
555,Sao Joao Evangelista,BR,-18.5478,-42.7633,78.04,30,0,3.47,clear sky
556,Aliwal North,ZA,-30.6937,26.7114,46.09,33,0,6.4,clear sky
557,Waipawa,NZ,-41.4122,175.5153,46.24,93,98,4.47,overcast clouds
558,Tinaquillo,VE,9.9186,-68.3047,86.07,59,80,5.55,broken clouds
559,Tsogni,GA,-2.7942,10.0988,72.59,77,98,5.86,overcast clouds
560,Vanavara,RU,60.34,102.2797,58.05,95,85,3.02,overcast clouds
561,Turukhansk,RU,65.8167,87.9833,61.05,64,73,14.05,broken clouds
562,Sembe,CG,1.6481,14.5806,68.85,99,100,2.57,moderate rain
563,Marienburg,PL,54.0359,19.0266,68.85,80,92,3.65,overcast clouds
564,Kitgum,UG,3.2783,32.8867,70.03,74,89,2.44,light rain
565,North Myrtle Beach,US,33.816,-78.68,95.09,66,42,4.0,scattered clouds
566,Springbok,ZA,-29.6643,17.8865,48.97,61,0,5.19,clear sky
567,Gogrial,SS,8.5332,28.1004,73.09,87,83,9.78,heavy intensity rain
568,Korla,CN,41.7597,86.1469,69.64,56,100,9.73,overcast clouds
569,Kiama,AU,-34.6833,150.8667,57.38,75,76,3.0,broken clouds
570,Tura,IN,25.5198,90.2201,72.05,99,100,8.97,overcast clouds
571,Olga,RU,43.7444,135.2892,55.51,99,89,1.12,overcast clouds
572,Medicine Hat,CA,50.0501,-110.6683,78.22,55,20,6.91,few clouds
573,Ilo,PE,-17.6394,-71.3375,65.26,63,20,12.66,few clouds
574,Waterloo,CA,43.4668,-80.5164,75.52,43,0,17.27,clear sky
575,Sao Joao Da Barra,BR,-21.6403,-41.0511,80.69,63,0,14.85,clear sky
576,Santa Marta,CO,11.2408,-74.199,91.45,62,75,8.05,broken clouds
577,Dwarka,IN,22.2394,68.9678,84.76,81,39,17.45,scattered clouds
578,Anjiang,CN,27.3194,110.1031,71.74,98,100,1.03,overcast clouds
579,Biltine,TD,14.5333,20.9167,98.38,13,55,6.96,broken clouds
580,Xai-Xai,MZ,-25.0519,33.6442,60.57,53,0,6.33,clear sky
581,Mayahi,NE,13.9553,7.6712,84.61,48,70,8.41,broken clouds
582,Petropavlovsk-Kamchatskiy,RU,53.0452,158.6483,43.39,100,100,6.71,fog
583,Inuvik,CA,68.3499,-133.7218,70.56,32,75,10.36,broken clouds
584,Tecoanapa,MX,16.5167,-98.75,82.76,67,99,8.61,overcast clouds
585,San Carlos,VE,9.6612,-68.5827,87.4,58,88,4.41,overcast clouds
586,Mehamn,NO,71.0357,27.8492,42.75,81,75,6.91,broken clouds
587,Sangmelima,CM,2.9333,11.9833,67.46,98,100,3.91,moderate rain
588,Aksarka,RU,66.5606,67.7975,62.6,60,81,7.92,broken clouds
589,Kargasok,RU,59.0556,80.8572,55.87,94,96,2.75,light rain
590,Malatya,TR,38.5,38.0,71.65,50,40,5.75,scattered clouds
591,Sechura,PE,-5.5569,-80.8222,74.19,54,22,11.99,few clouds
592,Sorrento,IT,40.626,14.3744,74.66,76,84,1.01,broken clouds
593,Brae,GB,60.3964,-1.353,52.63,74,33,26.46,scattered clouds
594,Kahului,US,20.8947,-156.47,78.84,83,48,13.0,scattered clouds
595,Boyolangu,ID,-8.1181,111.8935,75.61,93,100,0.65,overcast clouds
596,Anloga,GH,5.7947,0.8973,74.88,91,100,11.39,moderate rain
597,Kaolinovo,BG,43.6167,27.1167,68.25,68,16,3.74,few clouds
598,Bubaque,GW,11.2833,-15.8333,79.38,77,84,12.35,broken clouds
599,Redmond,US,47.674,-122.1215,58.87,85,100,5.01,light rain
600,Olinda,BR,-8.0089,-34.8553,78.53,83,75,5.75,broken clouds
601,Nishihara,JP,26.1842,127.7558,76.28,100,75,9.22,broken clouds
602,Nichinan,JP,31.6,131.3667,70.3,98,100,7.07,moderate rain
603,Qandala,SO,11.472,49.8728,90.32,54,35,4.81,scattered clouds
604,Connersville,US,39.6412,-85.1411,85.5,54,61,5.99,broken clouds
605,Oxapampa,PE,-10.5775,-75.4017,73.26,46,3,5.79,clear sky
606,Badvel,IN,14.75,79.05,85.8,62,90,6.49,overcast clouds
607,Reconquista,AR,-29.15,-59.65,64.9,34,29,13.87,scattered clouds
608,Auki,SB,-8.7676,160.7034,76.62,89,93,4.79,moderate rain
609,Belluno,IT,46.145,12.2214,76.19,78,72,2.93,broken clouds
610,Port Shepstone,ZA,-30.7414,30.455,59.25,64,0,8.41,clear sky
611,Tara,RU,56.8944,74.371,54.54,96,19,5.77,few clouds
612,Sidi Ali,DZ,36.0998,0.4206,88.18,32,12,14.79,few clouds
613,Panuco,MX,22.05,-98.1667,86.18,52,11,1.59,few clouds
614,Solsona,ES,41.994,1.5171,90.82,25,68,8.84,broken clouds
615,Senador Jose Porfirio,BR,-2.5908,-51.9542,82.26,65,97,0.87,overcast clouds
616,Bukama,CD,-9.2,25.85,74.35,32,23,2.55,few clouds
617,San Ignacio,BZ,17.1561,-89.0714,80.29,89,97,3.44,moderate rain
618,Klaksvik,FO,62.2266,-6.589,47.32,89,99,45.16,moderate rain
619,Zabaykalsk,RU,49.6333,117.3167,63.3,51,18,3.6,few clouds
620,Choa Saidan Shah,PK,32.7201,72.9849,76.42,68,94,5.53,overcast clouds
621,Abu Samrah,SY,35.3029,37.1841,87.53,22,0,10.22,clear sky
622,Beyneu,KZ,45.3167,55.2,79.88,38,68,11.83,broken clouds
623,Krasnoselkup,RU,65.7,82.4667,56.3,49,25,12.01,scattered clouds
624,Nyurba,RU,63.2842,118.3319,50.09,61,2,2.39,clear sky
625,Bay Roberts,CA,47.5999,-53.2648,69.06,59,5,5.99,clear sky
626,Wichita Falls,US,33.9137,-98.4934,98.26,32,0,3.44,clear sky
627,Merauke,ID,-8.4667,140.3333,77.04,90,36,11.45,scattered clouds
628,Mahibadhoo,MV,3.7833,72.9667,82.15,76,81,8.48,broken clouds
629,Bergen,NO,60.392,5.328,58.15,93,75,17.27,broken clouds
630,Nyagan,RU,62.1406,65.3936,63.21,55,12,6.62,few clouds
631,Cururupu,BR,-1.8283,-44.8683,86.0,58,100,6.8,overcast clouds
632,Skegness,GB,53.1436,0.3363,84.22,69,94,10.8,overcast clouds
633,Manzhouli,CN,49.6,117.4333,63.48,50,22,3.89,few clouds
634,Hambantota,LK,6.1241,81.1185,79.11,84,100,16.02,overcast clouds
635,Ha Tinh,VN,18.3333,105.9,83.53,68,96,6.26,overcast clouds
636,Ust-Nera,RU,64.5667,143.2,56.23,67,99,2.3,overcast clouds
637,Gusau,NG,12.1628,6.6614,76.96,73,97,2.17,overcast clouds
638,Pekalongan,ID,-6.8886,109.6753,77.02,82,98,3.94,overcast clouds
639,Nurota,UZ,40.5614,65.6886,82.13,14,4,4.23,clear sky
640,Yanam,IN,16.7333,82.2167,83.25,80,100,6.4,overcast clouds
641,Ayan,RU,56.45,138.1667,42.78,96,81,1.3,broken clouds
642,Mitu,CO,1.1983,-70.1733,74.34,91,95,0.63,overcast clouds
643,Emerald,AU,-23.5333,148.1667,51.35,67,0,11.56,clear sky
644,Blackwater,AU,-23.5833,148.8833,53.2,52,0,7.0,clear sky
645,Samarai,PG,-10.6167,150.6667,79.59,82,12,6.73,few clouds
646,Sabang,ID,5.8933,95.3214,83.41,73,73,5.3,broken clouds
647,Kabalo,CD,-6.05,26.9167,83.05,30,32,3.42,scattered clouds
648,Bagado,CO,5.4116,-76.4152,82.45,82,87,3.67,light rain
649,Petrovsk,RU,52.3064,45.3917,62.08,60,90,5.95,overcast clouds
650,Humberto De Campos,BR,-2.5983,-43.4611,87.03,57,98,4.21,overcast clouds
651,Broken Hill,AU,-31.95,141.4333,46.94,78,0,5.19,clear sky
652,Marystown,CA,47.1666,-55.1483,58.05,76,39,7.56,scattered clouds
653,Mahates,CO,10.2329,-75.1899,82.29,72,89,12.1,overcast clouds
654,Chumikan,RU,54.7183,135.315,36.75,99,100,3.29,overcast clouds
655,Garowe,SO,8.4054,48.4845,88.11,29,99,17.52,overcast clouds
656,Sept-Iles,CA,50.2001,-66.3821,56.05,98,100,9.22,mist
657,Yenagoa,NG,4.9247,6.2642,72.12,97,100,2.93,overcast clouds
658,Fukue,JP,32.6881,128.8419,72.12,94,97,4.14,overcast clouds
659,Maloh,PH,9.056,122.9851,81.57,78,84,4.03,broken clouds
660,Mount Gambier,AU,-37.8333,140.7667,44.51,93,9,6.91,mist
661,Ajaccio,FR,42.0,8.9167,78.85,48,0,5.75,clear sky
662,Gushikawa,JP,26.3544,127.8686,76.23,94,100,8.68,overcast clouds
663,Tarko-Sale,RU,64.9225,77.785,55.71,50,5,11.54,clear sky
664,Cockburn Town,TC,21.4612,-71.1419,82.0,75,100,12.08,overcast clouds
665,Zhuanghe,CN,39.7008,122.9911,66.56,97,98,5.68,overcast clouds
666,Sidhpura,IN,27.6333,78.8833,89.83,39,92,4.21,overcast clouds
667,Mashhad,IR,36.297,59.6062,78.94,41,0,4.61,clear sky
668,Lianzhou,CN,24.7811,112.3825,74.41,98,100,3.49,overcast clouds
669,San Lucas,MX,16.6,-92.7167,79.48,72,96,0.27,overcast clouds
670,Kampene,CD,-3.6,26.6667,73.6,70,90,2.8,overcast clouds
671,Kurchum,KZ,48.5722,83.6542,60.12,62,44,4.32,scattered clouds
672,Searcy,US,35.2506,-91.7363,96.15,61,4,5.17,clear sky
673,Edd,ER,13.9297,41.6925,89.46,61,64,4.54,broken clouds
674,Kichmengskiy Gorodok,RU,59.9816,45.7854,54.12,92,75,5.21,broken clouds
675,Cam Ranh,VN,11.9214,109.1591,82.36,78,20,5.75,few clouds
676,Khoy,IR,38.5504,44.9535,78.42,32,1,2.62,clear sky
677,Najran,SA,17.4924,44.1277,85.17,19,76,7.72,broken clouds
678,Chernyshevskiy,RU,63.0128,112.4714,51.93,60,23,3.15,few clouds
679,Impfondo,CG,1.6381,18.0667,69.67,99,100,2.57,overcast clouds
680,Piacabucu,BR,-10.4056,-36.4344,77.25,78,100,9.31,overcast clouds
681,Goleta,TN,36.8181,10.305,86.0,30,0,6.91,clear sky
682,Minden,DE,52.2833,8.9167,77.99,41,96,1.14,overcast clouds
683,Butterworth,MY,5.3991,100.3638,79.0,92,20,3.44,few clouds
684,Kagoro,NG,9.6,8.3833,69.12,90,97,1.95,overcast clouds
685,Mbala,ZM,-8.8402,31.3659,62.91,52,14,8.75,few clouds
686,Naze,JP,28.3667,129.4833,74.93,86,100,18.07,overcast clouds
687,Zhanaozen,KZ,43.3,52.8,84.42,34,62,3.0,broken clouds
688,Ixtapa,MX,20.7,-105.2,85.23,78,85,3.0,light rain
689,Half Moon Bay,US,37.4636,-122.4286,68.88,64,0,14.97,clear sky
690,Toora-Khem,RU,52.4675,96.11,52.0,87,97,4.12,overcast clouds
691,Lerwick,GB,60.1545,-1.1494,53.6,74,28,26.37,scattered clouds
692,Mahad,IN,18.0833,73.4167,81.52,82,100,2.71,overcast clouds
693,Maragogi,BR,-9.0122,-35.2225,79.43,75,76,1.43,broken clouds
694,Puerto El Triunfo,SV,13.2833,-88.55,83.23,70,86,9.73,overcast clouds
695,Blagodarnyy,RU,45.0978,43.4364,70.75,58,61,0.74,broken clouds
696,Khandyga,RU,62.6667,135.6,53.64,94,100,1.7,light rain
697,Nacala,MZ,-14.5428,40.6728,70.75,79,45,10.02,scattered clouds
698,Xingcheng,CN,40.6167,120.7167,66.38,94,98,3.31,overcast clouds
699,Vila,PT,42.0304,-8.1588,70.7,68,79,6.26,broken clouds
700,Bukachacha,RU,52.9833,116.9167,55.17,73,27,2.84,scattered clouds
701,Mezen,RU,65.8522,44.24,53.67,88,65,5.28,broken clouds
702,Tinskoy,RU,56.1525,96.9161,56.26,88,100,3.89,overcast clouds
703,Naryan-Mar,RU,67.6713,53.087,63.72,69,84,5.5,light rain
704,Skjervoy,NO,70.0311,20.9714,51.8,76,15,6.53,few clouds
705,Axim,GH,4.8699,-2.2405,75.78,87,100,9.04,light rain
706,Kyren,RU,51.6828,102.1408,60.91,97,100,2.64,light rain
707,Carbonia,IT,39.1672,8.5222,86.02,47,17,6.67,few clouds
708,Ndola,ZM,-12.9587,28.6366,62.1,53,2,7.87,clear sky
709,Nemuro,JP,43.3236,145.575,50.97,97,99,3.62,overcast clouds
